[
    {"city":"New York","population":"8,175,133","image":"http://upload.wikimedia.org/wikipedia/commons/thumb/b/b9/Above_Gotham.jpg/240px-Above_Gotham.jpg","state":"New York","latitude":40.6643,"longitude":-73.9385},
    {"city":"Chicago","population":"2,695,598","image":"http://upload.wikimedia.org/wikipedia/commons/thumb/8/85/2008-06-10_3000x1000_chicago_skyline.jpg/240px-2008-06-10_3000x1000_chicago_skyline.jpg","state":"Illinois","latitude":41.8376,"longitude":-87.6818},
    {"city":"Houston","population":"2,100,263","image":"http://upload.wikimedia.org/wikipedia/commons/thumb/6/60/Aerial_views_of_the_Houston%2C_Texas%2C_28005u.jpg/240px-Aerial_views_of_the_Houston%2C_Texas%2C_28005u.jpg","state":"Texas","latitude":29.7805,"longitude":-95.3863},
    {"city":"Austin","population":"790,390","image":"http://upload.wikimedia.org/wikipedia/commons/thumb/9/97/Austin2012-12-01.JPG/240px-Austin2012-12-01.JPG","state":"Texas","latitude":30.3072,"longitude":-97.7560},
    {"city":"Indianapolis","population":"820,445","image":"http://upload.wikimedia.org/wikipedia/commons/thumb/1/16/Downtown_indy_from_parking_garage_zoom.JPG/213px-Downtown_indy_from_parking_garage_zoom.JPG","state":"Indiana","latitude":39.7767,"longitude":-86.1459},
    {"city":"Denver","population":"600,158","image":"http://upload.wikimedia.org/wikipedia/commons/thumb/0/0b/DenverCP.JPG/240px-DenverCP.JPG","state":"Colorado","latitude":39.7618,"longitude":-104.8806}
  ]
  